{
    "Restaurants": [
        {
            "id": "0",
            "name": "Septime",
            "bestFood": "Un fondant filet de canard aux anchois de Guéthary et jus de viande infusé au laurier.",
            "street": "80 rue de Charonne",
            "city": "Paris",
            "postalCode": "75011",
            "averagePrice": "35",
            "openingHourPM": "12h30",
            "closeHourPM": "14h00",
            "openingHourAM": "20h00",
            "closeHourAM": "22h30",
            "latitude": "48.8535973",
            "longitude": "2.3809063",
            "note": "4",
            "phoneNumber": "01 43 67 38 29"
        },
        {
            "id": "1",
            "name": "Les-Enfants-du-Marché",
            "bestFood": "Des moules de l’île de Groix, maousse, nageant dans une sauce au gorgonzola (tuerie) au milieu de calçots, ces oignons catalans tendres et doux",
            "street": "39 rue de Bretagne",
            "city": "Paris",
            "postalCode": "75003",
            "averagePrice": "25",
            "openingHourPM": "9h00",
            "closeHourPM": "17h00",
            "latitude": "48.863",
            "longitude": "2.36214",
            "note": "5",
            "phoneNumber": "06 69 99 21 21"
        },
        {
            "id": "2",
            "name": "Mokonuts",
            "bestFood": "Un dément labné au zaatar, à tartiner sur un pain pita maison, ou le potimarron rôti à dipper dans une onctueuse sauce tahini… ",
            "street": "5 rue Saint-Bernard",
            "city": "Paris",
            "postalCode": "75011",
            "averagePrice": "10",
            "openingHourPM": "9h00",
            "closeHourPM": "17h00",
            "latitude": "48.8508",
            "longitude": "2.38143",
            "note": "5",
            "phoneNumber": "09 80 81 82 85"
        },
        {
            "id": "3",
            "name": "Les-Arlots",
            "bestFood": "Venez déguster leur fameux plat saucisse-purée maison.. réalisé avec passion et savoir depuis de longues années",
            "street": "136 rue du Faubourg Poissonnière",
            "city": "Paris",
            "postalCode": "75010",
            "averagePrice": "20",
            "openingHourPM": "12h00",
            "closeHourPM": "14h30",
            "openingHourAM": "18h00",
            "closeHourAM": "22h30",
            "latitude": "48.8806212",
            "longitude": "2.3499963",
            "note": "5",
            "phoneNumber": "01 42 82 92 01"
        },
        {
            "id": "4",
            "name": "Abri",
            "bestFood": "Le fameux kastsu sando, club sandwich japonais du samedi midi.",
            "street": "92 rue du Faubourg-Poissonnière",
            "city": "Paris",
            "postalCode": "75010",
            "averagePrice": "45",
            "openingHourPM": "12h30",
            "closeHourPM": "14h00",
            "openingHourAM": "19h30",
            "closeHourAM": "22h00",
            "latitude": "48.8779",
            "longitude": "2.34923",
            "note": "5",
            "phoneNumber": "01 83 97 00 00"
        },
        {
            "id": "5",
            "name": "Restaurant-Passerini",
            "bestFood": "La pasta all'amatriciana ! On en salive encore.",
            "street": "65 rue Traversière",
            "city": "Paris",
            "postalCode": "75012",
            "averagePrice": "55",
            "openingHourPM": "12h30",
            "closeHourPM": "14h15",
            "openingHourAM": "19h30",
            "closeHourAM": "22h30",
            "latitude": "48.8494",
            "longitude": "2.37486",
            "note": "5",
            "phoneNumber": "01 43 42 27 56"
        },
        {
            "id": "6",
            "name": "Miznon",
            "bestFood": "La pita kebab d'agneau ou poisson doré, flanquée du fameux chou-fleur rôti !",
            "street": "22 rue des Ecouffes",
            "city": "Paris",
            "postalCode": "75004",
            "averagePrice": "10",
            "openingHourPM": "12h00",
            "closeHourPM": "23h00",
            "latitude": "48.8572",
            "longitude": "2.35893",
            "note": "5",
            "phoneNumber": "01 42 74 83 58"
        },
        {
            "id": "7",
            "name": "Clamato",
            "bestFood": "Un haddock fondant accompagné de quelques asperges balais et de miso rouge ",
            "street": "80 rue de Charonne",
            "city": "Paris",
            "postalCode": "75011",
            "averagePrice": "13",
            "openingHourPM": "19h00",
            "closeHourPM": "23h00",
            "latitude": "48.8536",
            "longitude": "2.38083",
            "note": "4.5",
            "phoneNumber": "01 43 72 74 53"
        },
        {
            "id": "8",
            "name": "Dersou",
            "bestFood": "Le ceviche de maigre, chou-rave, coques, vif et précis, surmonté d'une “neige” de fromage blanc réduit en poudre. Le tout boosté par un explosif cocktail mixant gin, saké, kiwi et poivre noir !",
            "street": "21 rue Saint-Nicolas",
            "city": "Paris",
            "postalCode": "75012",
            "averagePrice": "100",
            "openingHourPM": "19h30",
            "closeHourPM": "23h00",
            "latitude": "48.8514",
            "longitude": "2.37463",
            "note": "4",
            "phoneNumber": "09 81 01 12 73"
        },
        {
            "id": "9",
            "name": "Da-Graziella",
            "bestFood": "La pizza fritta comme à Napoli !",
            "street": "41 rue des Petites Ecuries",
            "city": "Paris",
            "postalCode": "75010",
            "averagePrice": "15",
            "openingHourPM": "12h00",
            "closeHourPM": "14h30",
            "openingHourAM": "19h00",
            "closeHourAM": "22h30",
            "latitude": "48.8738",
            "longitude": "2.34993",
            "note": "4.1",
            "phoneNumber": "01 45 65 37 15"
        },
        {
            "id": "10",
            "name": "Waly-Fay",
            "bestFood": "Le ndolé camerounais ou le tiep bou dièn sénégalais",
            "street": "6 rue Godefroy Cavaignac",
            "city": "Paris",
            "postalCode": "75011",
            "averagePrice": "20",
            "openingHourPM": "12h00",
            "closeHourPM": "15h00",
            "openingHourAM": "19h00",
            "closeHourAM": "00h00",
            "latitude": "48.8543",
            "longitude": "2.38186",
            "note": "4",
            "phoneNumber": "01 40 24 17 79"
        },
        {
            "id": "11",
            "name": "Vivant-2",
            "bestFood": "Vous pourrez découvrir leur tsunamique chinchard à la flamme qui tabasse sans passe-passe, en mode cru soyeux au grillé torréfié, sur d’extatiques germes de soja baignés d’un jus corsé au gingembre",
            "street": "43 Rue des Petites Écuries",
            "city": "Paris",
            "postalCode": "75010",
            "averagePrice": "25",
            "openingHourPM": "19h00",
            "closeHourPM": "23h15",
            "latitude": "48.8738",
            "longitude": "2.3498",
            "note": "4.3",
            "phoneNumber": "09 67 49 96 26"
        },
        {
            "id": "12",
            "name": "Le-Servan",
            "bestFood": "Des zakouski (hors-d'œuvre en russe), parmi lesquels de savoureux wonton (raviolis) de boudin noir frits, ou ces désormais mythiques coques pimentées au basilic thaï",
            "street": "32 rue Saint-Maur",
            "city": "Paris",
            "postalCode": "75011",
            "averagePrice": "15",
            "openingHourPM": "12h00",
            "closeHourPM": "14h30",
            "openingHourAM": "19h30",
            "closeHourAM": "22h30",
            "latitude": "48.861",
            "longitude": "2.38136",
            "note": "5",
            "phoneNumber": "01 55 28 51 82"
        },
        {
            "id": "13",
            "name": "C.A.M",
            "bestFood": "Les crevettes de compète au beurre noisette et à la pomme.",
            "street": "55 rue au Maire",
            "city": "Paris",
            "postalCode": "75003",
            "averagePrice": "37",
            "openingHourPM": "19h00",
            "closeHourPM": "00h00",
            "latitude": "48.8649",
            "longitude": "2.35474",
            "note": "4.8",
            "phoneNumber": "06 26 41 10 66"
        },
        {
            "id": "14",
            "name": "Le-Chateaubriand",
            "bestFood": "Deux desserts signature : la glace au lait ribot, et le tocino de cielo revisité. Un jaune d'œuf confit coulant, zépo sur un socle de dacquoise (meringue à la poudre d’amandes), caramel fleur de sel… A gober d'une traite sous peine de s'en coller partout !",
            "street": "129 avenue Parmentier",
            "city": "Paris",
            "postalCode": "75011",
            "averagePrice": "75",
            "openingHourPM": "19h00",
            "closeHourPM": "23h00",
            "latitude": "48.8694",
            "longitude": "2.37133",
            "note": "4",
            "phoneNumber": "01 43 57 45 95"
        },
        {
            "id": "15",
            "name": "Quinsou",
            "bestFood": "Les huîtres à la gelée de dashi. Et en saison, le homard des îles Chausey.",
            "street": "33 rue de l’Abbé Grégoire",
            "city": "Paris",
            "postalCode": "75006",
            "averagePrice": "50",
            "openingHourPM": "12h30",
            "closeHourPM": "13h30",
            "openingHourAM": "19h30",
            "closeHourAM": "21h30",
            "latitude": "48.8477",
            "longitude": "2.32549",
            "note": "4.3",
            "phoneNumber": "01 42 22 66 09"
        },
        {
            "id": "16",
            "name": "L’Avant-Comptoir-du-Marché",
            "bestFood": "Une terrine de la semaine + un ballon de jaja nature.",
            "street": "14 rue Lobineau",
            "city": "Paris",
            "postalCode": "75006",
            "averagePrice": "10",
            "openingHourPM": "12h00",
            "closeHourPM": "23h00",
            "latitude": "48.8517",
            "longitude": "2.33559",
            "note": "4.4",
            "phoneNumber": "01 44 27 07 97"
        },
        {
            "id": "17",
            "name": "Le-Baratin",
            "bestFood": "La pomme de cœur de ris de veau braisée au citron.",
            "street": "3 rue Jouye-Rouve",
            "city": "Paris",
            "postalCode": "75020",
            "averagePrice": "20",
            "openingHourPM": "12h00",
            "closeHourPM": "14h30",
            "openingHourAM": "19h30",
            "closeHourAM": "23h15",
            "latitude": "48.8731",
            "longitude": "2.38282",
            "note": "4",
            "phoneNumber": "01 43 49 39 70"
        },
        {
            "id": "18",
            "name": "Otium",
            "bestFood": "Un grand OUI pour le dodu burger au tofu grillé. Et le porn cookie au chocolat noir/fleur de sel.",
            "street": "56 rue de la Rochefoucauld",
            "city": "Paris",
            "postalCode": "75009",
            "averagePrice": "15",
            "openingHourPM": "9h30",
            "closeHourPM": "17h00",
            "latitude": "48.8804",
            "longitude": "2.33547",
            "note": "5",
            "phoneNumber": "01 72 38 86 81"
        },
        {
            "id": "19",
            "name": "Cuisine",
            "bestFood": "Le maguro katsu (darne de thon frit), rémoulade céleri/raifort.",
            "street": "50 rue Condorcet",
            "city": "Paris",
            "postalCode": "75009",
            "averagePrice": "30",
            "openingHourPM": "12h00",
            "closeHourPM": "14h00",
            "openingHourAM": "19h30",
            "closeHourAM": "22h00",
            "latitude": "48.8803",
            "longitude": "2.34325",
            "note": "4.2",
            "phoneNumber": "01 44 63 75 64"
        },
        {
            "id": "20",
            "name": "Frenchie",
            "bestFood": "Ici, c’est carte blanche au produit. C’est lui qui guide les évolutions de la carte au gré des saisons",
            "street": "5 rue du Nil",
            "city": "Paris",
            "postalCode": "75002",
            "averagePrice": "35",
            "openingHourPM": "12h00",
            "closeHourPM": "14h00",
            "openingHourAM": "18h30",
            "closeHourAM": "21h30",
            "latitude": "48.8677",
            "longitude": "2.34792",
            "note": "4.3",
            "phoneNumber": "01 40 39 96 19"
        },
        {
            "id": "21",
            "name": "Fulgurances",
            "bestFood": "Cette fois-là, une fricassée de cuisses de pintade, tahini, poireaux confits, herbes et sucrine.",
            "street": "10 rue Alexandre Dumas",
            "city": "Paris",
            "postalCode": "75011",
            "averagePrice": "35",
            "openingHourPM": "12h30",
            "closeHourPM": "14h00",
            "openingHourAM": "19h30",
            "closeHourAM": "22h00",
            "latitude": "48.8529",
            "longitude": "2.38988",
            "note": "4.8",
            "phoneNumber": "01 43 48 14 59"
        },
        {
            "id": "22",
            "name": "Abri-Soba",
            "bestFood": "La tempura soba avec ses beignets de crevettes et légumes.",
            "street": "10 rue Saulnier",
            "city": "Paris",
            "postalCode": "75010",
            "averagePrice": "28",
            "openingHourPM": "12h00",
            "closeHourPM": "14h30",
            "openingHourAM": "19h00",
            "closeHourAM": "21h30",
            "latitude": "48.875",
            "longitude": "2.34445",
            "note": "4.6",
            "phoneNumber": "01 44 32 00 32"
        },
        {
            "id": "23",
            "name": "Ze-Kitchen-Galerie",
            "bestFood": "Ça change tous les mois… Mais ce midi-là, clairement le boeuf wagyu en deux façons, panais, carottes & Co…",
            "street": "4 Rue des Grands Augustins",
            "city": "Paris",
            "postalCode": "75006",
            "averagePrice": "60",
            "openingHourPM": "12h15",
            "closeHourPM": "14h30",
            "openingHourAM": "19h15",
            "closeHourAM": "22h00",
            "latitude": "48.8549",
            "longitude": "2.34114",
            "note": "4.3",
            "phoneNumber": "09 73 27 00 67"
        },
        {
            "id": "24",
            "name": "Racines",
            "bestFood": "Le vitello tonnato en entrée, modèle du genre",
            "street": "8 passage des Panoramas",
            "city": "Paris",
            "postalCode": "75002",
            "averagePrice": "45",
            "openingHourPM": "12h30",
            "closeHourPM": "14h30",
            "openingHourAM": "19h30",
            "closeHourAM": "22h00",
            "latitude": "48.8712",
            "longitude": "2.34178",
            "note": "4.2",
            "phoneNumber": "01 40 13 06 41"
        },
        {
            "id": "25",
            "name": "Zaoka",
            "bestFood": "Les gua bao sont immanquables. ",
            "street": "3 rue des Patriarches",
            "city": "Paris",
            "postalCode": "75005",
            "averagePrice": "19",
            "openingHourPM": "14h30",
            "closeHourPM": "22h30",
            "latitude": "48.8414",
            "longitude": "2.3509",
            "note": "4.3",
            "phoneNumber": "09.73.27.00.67"
        },
        {
            "id": "26",
            "name": "Double-Dragon",
            "bestFood": "Le tofu frit, la joue de porc caramélisée.",
            "street": "52, rue Saint-Maur",
            "city": "Paris",
            "postalCode": "75011",
            "averagePrice": "40",
            "openingHourPM": "12h00",
            "closeHourPM": "15h00",
            "openingHourAM": "19h00",
            "closeHourAM": "23h00",
            "latitude": "48.8625334",
            "longitude": "2.3799298",
            "note": "4.1",
            "phoneNumber": "01 71 32 41 95"
        },
        {
            "id": "27",
            "name": "Adar",
            "bestFood": "Le poulet au ras el-hanout acoquiné de légumes printaniers.",
            "street": "49, passage des Panoramas",
            "city": "Paris",
            "postalCode": "75002",
            "averagePrice": "17",
            "openingHourPM": "12h30",
            "closeHourPM": "19h00",
            "latitude": "48.8709596",
            "longitude": "2.3416358",
            "note": "5",
            "phoneNumber": "06 64 49 18 68"
        },
        {
            "id": "28",
            "name": "Eels",
            "bestFood": "L’anguille fumée et sa mousse matcha.",
            "street": "27 rue d’Hauteville",
            "city": "Paris",
            "postalCode": "75010",
            "averagePrice": "50",
            "openingHourPM": "12h30",
            "closeHourPM": "14h00",
            "openingHourAM": "19h30",
            "closeHourAM": "22h00",
            "latitude": "48.8732299",
            "longitude": "2.3502848",
            "note": "4.3",
            "phoneNumber": "01 42 28 80 20"
        },
        {
            "id": "29",
            "name": "Les-Pantins",
            "bestFood": "Le poulpe basque grillé qui fait pas sa mijaurée, dopé à la mousse d’ail, aneth, betterave rose crue",
            "street": "6 rue Victor Hugo",
            "city": "Pantin",
            "postalCode": "93500",
            "averagePrice": "35",
            "openingHourPM": "10h00",
            "closeHourPM": "14h30",
            "openingHourAM": "17h30",
            "closeHourAM": "23h30",
            "latitude": "48.8139",
            "longitude": "2.3518",
            "note": "4.5",
            "phoneNumber": "01 57 14 38 74"
        },
        {
            "id": "30",
            "name": "Le-Rigmarole",
            "bestFood": "Les brochettes cuites au charbon blanc.",
            "street": "10 rue du Grand Prieuré",
            "city": "Paris",
            "postalCode": "75011",
            "averagePrice": "50",
            "openingHourPM": "19h30",
            "closeHourPM": "22h30",
            "latitude": "48.8652",
            "longitude": "2.36905",
            "note": "5",
            "phoneNumber": "01 71 24 58 44"
        },
        {
            "id": "31",
            "name": "Le-975",
            "bestFood": "Un travers de porc ibérique confit aux épices, avec purée maison et petite roquette",
            "street": "25 Rue Guy Môquet",
            "city": "Paris",
            "postalCode": "75017",
            "averagePrice": "33",
            "openingHourPM": "12h00",
            "closeHourPM": "14h30",
            "openingHourAM": "19h30",
            "closeHourAM": "22h30",
            "latitude": "48.892",
            "longitude": "2.32244",
            "note": "5",
            "phoneNumber": "09 53 75 67 71"
        },
        {
            "id": "32",
            "name": "Le-Maquis",
            "bestFood": "Ce bœuf saignant, grillé au poivre vert, topé de sauge fraîche et petits artichauts sauvages (ultragoûtus), reposant sur un lit d’épinards (23 €)",
            "street": "53 rue des Cloys",
            "city": "Paris",
            "postalCode": "75018",
            "averagePrice": "30",
            "openingHourPM": "12h00",
            "closeHourPM": "14h30",
            "openingHourAM": "19h30",
            "closeHourAM": "22h30",
            "latitude": "48.8932",
            "longitude": "2.33726",
            "note": "5",
            "phoneNumber": "01 42 58 87 82"
        },
        {
            "id": "33",
            "name": "Brutos",
            "bestFood": "Une merveille d'entrecôte, cuite au feu de bois et que l'on tapote dans la farine de manioc et la sauce à la cachaça amburana. Mais aussi ces démentes croquettes de bœuf à dipper dans une sauce goyave-piment doux",
            "street": "5 rue du Général Renault",
            "city": "Paris",
            "postalCode": "75011",
            "averagePrice": "33",
            "openingHourPM": "19h30",
            "closeHourPM": "23h30",
            "latitude": "48.8615",
            "longitude": "2.37818",
            "note": "4",
            "phoneNumber": "01 48 06 98 97"
        },
        {
            "id": "34",
            "name": "Marrow",
            "bestFood": "L'os Marrow et un cocktail",
            "street": "128 Rue du Faubourg Saint-Martin",
            "city": "Paris",
            "postalCode": "75010",
            "averagePrice": "25",
            "openingHourPM": "19h00",
            "closeHourPM": "23h00",
            "latitude": "48.8744",
            "longitude": "2.35885",
            "note": "5",
            "phoneNumber": "09 81 34 57 00"
        },
        {
            "id": "35",
            "name": "Kunitoraya-(Udon-Bistro)",
            "bestFood": "Le Kunitoraya Udon, soupe chaude au miso avec émincés de porc soupe radis salsifis, au bouillon parfumé et entêtant.",
            "street": "1 rue Villedo",
            "city": "Paris",
            "postalCode": "75001",
            "averagePrice": "15",
            "openingHourPM": "12h00",
            "closeHourPM": "15h30",
            "openingHourAM": "19h00",
            "closeHourAM": "22h30",
            "latitude": "48.8659",
            "longitude": "2.33684",
            "note": "4",
            "phoneNumber": "01 47 03 07 74"
        },
        {
            "id": "36",
            "name": "Le-Dauphin",
            "bestFood": "Le risotto à l’encre de seiche.",
            "street": "131 avenue Parmentier",
            "city": "Paris",
            "postalCode": "75011",
            "averagePrice": "30",
            "openingHourPM": "12h30",
            "closeHourPM": "15h00",
            "latitude": "48.8695",
            "longitude": "2.37124",
            "note": "4",
            "phoneNumber": "01 55 28 78 88"
        },
        {
            "id": "37",
            "name": "Echo",
            "bestFood": "Le Scrambled Eggs & Mexican Chorizo Sandwich (10 €). Le Caramelized Grilled Cheese et les Multi-Grain Pancakes",
            "street": "95 rue d'Aboukir",
            "city": "Paris",
            "postalCode": "75002",
            "averagePrice": "22",
            "openingHourPM": "9h00",
            "closeHourPM": "16h00",
            "latitude": "48.8683",
            "longitude": "2.34851",
            "note": "5",
            "phoneNumber": "01 40 26 53 21"
        },
        {
            "id": "38",
            "name": "Cheval-d'Or",
            "bestFood": "Le char siu bao, dodu pain à la vapeur farci au porc laqué (9 € pièce)",
            "street": "21 rue de la Villette",
            "city": "Paris",
            "postalCode": "75019",
            "averagePrice": "45",
            "openingHourPM": "19h30",
            "closeHourPM": "23h00",
            "latitude": "48.8758",
            "longitude": "2.38734",
            "note": "4",
            "phoneNumber": "Pas de réservation"
        },
        {
            "id": "39",
            "name": "L'Amarante",
            "bestFood": "Des tripes ravigotantes aux olives, avec copieuse purée maison",
            "street": "4 rue Biscornet",
            "city": "Paris",
            "postalCode": "75012",
            "averagePrice": "29",
            "openingHourPM": "12h30",
            "closeHourPM": "13h45",
            "openingHourAM": "19h30",
            "closeHourAM": "22h30",
            "latitude": "48.8496",
            "longitude": "2.37001",
            "note": "5",
            "phoneNumber": "07 67 33 21 25"
        },
        {
            "id": "40",
            "name": "Saul's",
            "bestFood": "Ben justement, la shakshouka.",
            "street": "66 rue Rodier",
            "city": "Paris",
            "postalCode": "75009",
            "averagePrice": "14",
            "openingHourPM": "12h00",
            "closeHourPM": "14h30",
            "openingHourAM": "19h00",
            "closeHourAM": "22h00",
            "latitude": "48.8809",
            "longitude": "2.34423",
            "note": "5",
            "phoneNumber": "06 89 89 50 50"
        },
        {
            "id": "41",
            "name": "Paris-New-York-(Strasbourg-St-Denis)",
            "bestFood": "Un Golden State of Mind : bœuf Le Ponclet, cheddar affiné 18 mois, poitrine fumée, tomate, sauce moutarde à l'ancienne",
            "street": "50 rue du Faubourg Saint-Denis",
            "city": "Paris",
            "postalCode": "75010",
            "averagePrice": "14",
            "openingHourPM": "12h00",
            "closeHourPM": "15h00",
            "openingHourAM": "19h00",
            "closeHourAM": "23h00",
            "latitude": "48.872",
            "longitude": "2.354",
            "note": "5",
            "phoneNumber": "06 72 56 75 08"
        },
        {
            "id": "42",
            "name": "Le-Bar-des-Prés",
            "bestFood": "Des California saumon, avocat, jalapeño et sriracha.",
            "street": "25 rue du Dragon",
            "city": "Paris",
            "postalCode": "75006",
            "averagePrice": "20",
            "openingHourPM": "12h00",
            "closeHourPM": "14h30",
            "openingHourAM": "19h00",
            "closeHourAM": "23h00",
            "latitude": "48.8528",
            "longitude": "2.33052",
            "note": "5",
            "phoneNumber": "01 43 25 87 67"
        },
        {
            "id": "43",
            "name": "Boutique-yam'Tcha",
            "bestFood": "Le bao au stilton (fromage anglais) et cerises amarena",
            "street": "4 rue Sauval",
            "city": "Paris",
            "postalCode": "75001",
            "averagePrice": "16",
            "openingHourPM": "11h30",
            "closeHourPM": "22h00",
            "latitude": "48.8617",
            "longitude": "2.34244",
            "note": "4",
            "phoneNumber": "01 40 26 06 06"
        },
        {
            "id": "44",
            "name": "Le-Tagine",
            "bestFood": "Le couscous spécial à 21 € et son mix de viandes.",
            "street": "13 rue de Crussol",
            "city": "Paris",
            "postalCode": "75011",
            "averagePrice": "19",
            "openingHourPM": "19h00",
            "closeHourPM": "23h00",
            "latitude": "48.8642",
            "longitude": "2.36795",
            "note": "5",
            "phoneNumber": "01 47 00 28 67"
        },
        {
            "id": "45",
            "name": "Breizh-Café-(Batignolles)",
            "bestFood": "La galette tomme de Savoie, poitrine de cochon fumée, œuf bio brouillé, pommes de terre Vitelotte, crème crue de la Maison Bordier",
            "street": "31 Rue des Batignolles",
            "city": "Paris",
            "postalCode": "75017",
            "averagePrice": "20",
            "openingHourPM": "11h30",
            "closeHourPM": "23h00",
            "latitude": "48.8849",
            "longitude": "2.32086",
            "note": "5",
            "phoneNumber": "01 40 07 11 69"
        },
        {
            "id": "46",
            "name": "CheZaline",
            "bestFood": "Zampetti, la taulière, a effectivement fait le pari de ne presque",
            "street": "85 rue de la Roquette",
            "city": "Paris",
            "postalCode": "75011",
            "averagePrice": "13",
            "openingHourPM": "11h30",
            "closeHourPM": "15h30",
            "latitude": "48.8571",
            "longitude": "2.37845",
            "note": "5",
            "phoneNumber": "01 43 71 90 75"
        },
        {
            "id": "47",
            "name": "Deux-fois-plus-de-piment",
            "bestFood": "Le porc aux poireaux (en réalité des oignons nouveaux)",
            "street": "33 Rue Saint-Sébastien",
            "city": "Paris",
            "postalCode": "75011",
            "averagePrice": "10",
            "openingHourPM": "12h00",
            "closeHourPM": "14h00",
            "openingHourAM": "18h30",
            "closeHourAM": "22h30",
            "latitude": "48.8615",
            "longitude": "2.37055",
            "note": "5",
            "phoneNumber": "01 58 30 99 35"
        },
        {
            "id": "48",
            "name": "Etsi",
            "bestFood": "Le baklava, le meilleur goûté à Paris (et on est difficile).",
            "street": "23-25 rue Eugène Carrière",
            "city": "Paris",
            "postalCode": "75018",
            "averagePrice": "25",
            "openingHourPM": "12h00",
            "closeHourPM": "14h00",
            "openingHourAM": "19h00",
            "closeHourAM": "22h30",
            "latitude": "48.8903",
            "longitude": "2.33298",
            "note": "4",
            "phoneNumber": "01 71 50 00 80"
        },
        {
            "id": "49",
            "name": "Urfa-Dürüm",
            "bestFood": "Un dürüm à l'agneau",
            "street": "58 rue du Faubourg-Saint-Denis",
            "city": "Paris",
            "postalCode": "75010",
            "averagePrice": "10",
            "openingHourPM": "12h00",
            "closeHourPM": "00h00",
            "latitude": "48.8724",
            "longitude": "2.35426",
            "note": "4",
            "phoneNumber": "01 48 24 12 84"
        }
    ]
}